City_ID,City,Lat,Lng,Max Temp,Humidity,Cloudiness,Wind Speed,Country,Date
0,isafjordur,66.0755,-23.124,-4.07,73,18,3.63,IS,1737586526
1,port-aux-francais,-49.35,70.2167,5.1,78,68,15.74,TF,1737586527
2,edinburgh of the seven seas,-37.0676,-12.3116,17.12,85,82,1.32,SH,1737586528
3,princeville,45.7668,-61.2985,-10.38,79,100,5.66,CA,1737586529
4,bengkulu,-3.8004,102.2655,24.56,85,98,1.8,ID,1737586530
5,punta arenas,-53.15,-70.9167,17.06,67,75,2.57,CL,1737586532
6,grytviken,-54.2811,-36.5092,1.01,72,20,5.36,GS,1737586533
7,ust-nera,64.5667,143.2,-33.83,100,99,1.01,RU,1737586534
8,macau,22.2006,113.5461,16.85,100,40,2.06,MO,1737586535
9,chonchi,-42.6128,-73.8092,12.87,99,100,2.18,CL,1737586536
10,puerto ayora,-0.7393,-90.3518,25.31,91,75,0.89,EC,1737586537
11,waitangi,-43.9535,-176.5597,16.57,96,100,5.36,NZ,1737586538
12,port elizabeth,-33.918,25.5701,21.84,99,20,5.66,ZA,1737586539
13,bayanhongor,46.7167,100.1167,-21.11,74,3,1.93,MN,1737586540
14,albany,42.6001,-73.9662,-10.31,59,61,0.86,US,1737586541
15,adamstown,-25.066,-130.1015,25.02,79,9,3.57,PN,1737586542
16,buka,40.8108,69.1986,-1.96,71,100,3.26,UZ,1737586543
17,la passe,45.5549,-0.8967,9.2,90,100,5.05,FR,1737586545
18,uturoa,-16.7333,-151.4333,27.47,78,37,6.79,PF,1737586546
19,georgetown,5.4112,100.3354,25.96,98,20,1.54,MY,1737586547
20,alice springs,-23.7,133.8833,32.75,15,1,1.03,AU,1737586420
21,iqaluit,63.7506,-68.5145,-14.15,71,100,6.17,CA,1737586549
22,cabedelo,-6.9811,-34.8339,28.37,60,67,4.76,BR,1737586550
23,wailua homesteads,22.0669,-159.378,22.85,69,0,7.2,US,1737586551
24,gaiman,-43.2897,-65.4929,25.11,40,72,12.52,AR,1737586552
25,kodiak,57.79,-152.4072,4.73,65,0,5.66,US,1737586553
26,laminusa,5.5549,120.9136,26.9,84,100,3.93,PH,1737586554
27,nar'yan-mar,67.6713,53.087,-19.88,96,97,4.22,RU,1737586555
28,yaren,-0.5472,166.916,27.05,72,51,7.61,NR,1737586556
29,alotau,-10.3069,150.4462,27.66,87,100,1.07,PG,1737586557
30,lagos,6.5833,3.75,25.38,93,98,0.72,NG,1737586558
31,remire-montjoly,4.9167,-52.2667,24.02,94,0,1.03,GF,1737586559
32,nong chik,6.8436,101.178,23.71,86,100,3.25,TH,1737586413
33,port mathurin,-19.6833,63.4167,25.49,80,20,4.46,MU,1737586561
34,puerto natales,-51.7236,-72.4875,20.25,42,75,10.29,CL,1737586562
35,ushuaia,-54.8,-68.3,14.81,67,40,6.69,AR,1737586563
36,cockburn town,21.4612,-71.1419,25.59,86,10,7.0,TC,1737586564
37,bethel,41.3712,-73.414,-8.95,47,0,0.89,US,1737586565
38,el maamoura,36.465,10.8061,15.03,66,100,2.11,TN,1737586566
39,kintampo,8.0563,-1.7306,28.68,18,5,0.71,GH,1737586567
40,belmonte,-15.8631,-38.8828,26.12,85,0,3.78,BR,1737586568
41,beira,-19.8436,34.8389,26.05,73,100,4.12,MZ,1737586570
42,badger,64.8,-147.5333,-9.44,90,75,0.0,US,1737586571
43,bulalacao,12.3254,121.3435,25.8,83,48,7.38,PH,1737586572
44,bredasdorp,-34.5322,20.0403,21.27,91,100,0.96,ZA,1737586573
45,flying fish cove,-10.4217,105.6791,23.82,100,75,2.06,CX,1737586574
46,college,64.8569,-147.8028,-9.39,88,75,0.0,US,1737586575
47,mar del plata,-38.0023,-57.5575,21.01,71,0,4.63,AR,1737586286
48,dalhart,36.0595,-102.5133,3.01,28,0,10.29,US,1737586577
49,alofi,-19.0595,-169.9187,29.94,74,75,3.09,NU,1737586578
50,togur,58.3631,82.8265,-20.4,90,100,8.04,RU,1737586579
51,udachny,66.4167,112.4,-20.31,98,100,1.5,RU,1737586580
52,luderitz,-26.6481,15.1594,17.42,91,16,2.54,NA,1737586581
53,hawaiian paradise park,19.5933,-154.9731,27.15,63,40,4.12,US,1737586582
54,thompson,55.7435,-97.8558,-20.91,59,40,3.09,CA,1737586583
55,nouadhibou,20.931,-17.0347,18.99,88,13,3.09,MR,1737586584
56,pariyapuram,10.9561,76.1916,21.22,84,55,0.39,IN,1737586585
57,gisborne,-38.6533,178.0042,20.18,69,37,3.31,NZ,1737586586
58,yunak,38.8142,31.7322,1.1,92,83,1.61,TR,1737586587
59,ribeira grande,38.5167,-28.7,13.22,76,20,3.09,PT,1737586588
60,vadso,70.0744,29.7487,-11.91,79,75,5.14,NO,1737586589
61,port pirie,-33.1833,138.0167,23.77,46,99,2.98,AU,1737586590
62,hoemul-li,41.4339,129.67,-5.11,75,66,2.0,KP,1737586591
63,kosonsoy,41.2561,71.5508,-3.07,93,100,2.34,UZ,1737586594
64,egilsstadir,65.2653,-14.3948,-6.05,79,33,5.14,IS,1737586595
65,melfi,40.9965,15.6514,4.94,83,39,2.79,IT,1737586596
66,vorgashor,67.5833,63.95,-30.15,99,100,4.08,RU,1737586597
67,trat,12.5,102.5,18.33,79,100,1.12,TH,1737586598
68,taoudenni,22.6783,-3.9836,21.24,11,68,2.57,ML,1737586599
69,severo-yeniseyskiy,60.3725,93.0408,-12.43,87,91,7.46,RU,1737586600
70,nova sintra,14.8667,-24.7167,22.22,71,50,11.51,CV,1737586601
71,kasserine,35.1676,8.8365,10.43,45,56,4.08,TN,1737586602
72,cedeira,43.6797,-8.0209,11.1,77,67,5.89,ES,1737586603
73,shakawe,-18.3667,21.85,19.34,95,100,1.72,BW,1737586604
74,polyarnyy,69.1989,33.4478,-13.09,94,95,3.3,RU,1737586605
75,filingue,14.3521,3.3168,23.64,19,2,4.76,NE,1737586606
76,susuman,62.7833,148.1667,-44.91,100,89,0.06,RU,1737586608
77,kristiansund,63.1115,7.732,1.18,93,100,3.09,NO,1737586609
78,bonab,37.3404,46.0561,-0.01,61,100,1.72,IR,1737586610
79,waat,51.1454,6.4958,5.43,96,100,2.06,DE,1737586611
80,papatowai,-46.5619,169.4708,12.34,97,100,7.29,NZ,1737586612
81,slave lake,55.2834,-114.769,-5.01,80,0,1.03,CA,1737586613
82,charters towers,-20.1,146.2667,29.79,57,89,3.95,AU,1737586615
83,la'ie,21.6477,-157.9253,23.98,72,100,6.98,US,1737586616
84,jean-rabel,19.8533,-73.1917,25.39,72,21,2.61,HT,1737586617
85,ta`u,-14.2336,-169.5144,28.17,78,11,7.07,AS,1737586618
86,ancud,-41.8697,-73.8203,13.27,96,100,7.44,CL,1737586619
87,kapuskasing,49.4169,-82.4331,-11.95,85,100,4.12,CA,1737586620
88,dudinka,69.4058,86.1778,-32.76,85,6,8.53,RU,1737586621
89,al hada,21.3675,40.2869,11.66,66,33,0.52,SA,1737586622
90,invercargill,-46.4,168.35,13.34,97,100,2.24,NZ,1737586624
91,jamestown,42.097,-79.2353,-11.66,46,100,6.17,US,1737586396
92,longyearbyen,78.2186,15.6401,-7.09,73,75,3.6,SJ,1737586626
93,blackmans bay,-43.0167,147.3167,14.29,61,83,0.45,AU,1737586627
94,bereznik,62.8551,42.7072,-9.78,94,100,4.43,RU,1737586628
95,meadow lake,34.8014,-106.5436,7.14,7,0,10.15,US,1737586629
96,papao,-17.75,-149.55,29.82,77,42,7.43,PF,1737586630
97,coquimbo,-29.9533,-71.3436,19.85,67,0,5.66,CL,1737586631
98,holualoa,19.6228,-155.9522,24.91,66,0,5.14,US,1737586633
99,mount pearl,47.5166,-52.7813,-9.26,69,75,5.66,CA,1737586634
100,kone,-21.0595,164.8658,28.28,49,100,1.1,NC,1737586635
101,shira,54.4911,89.9531,-13.82,60,22,12.55,RU,1737586636
102,chita,52.0333,113.55,-30.06,76,40,0.0,RU,1737586637
103,nerchinsk,51.9833,116.5833,-29.74,100,96,0.47,RU,1737586638
104,atafu village,-8.5421,-172.5159,28.3,72,24,7.6,TK,1737586639
105,buulobarde,3.8538,45.5674,23.32,66,75,7.04,SO,1737586640
106,dalandzadgad,43.5708,104.425,-3.53,25,97,0.25,MN,1737586641
107,port alfred,-33.5906,26.891,21.21,97,79,1.34,ZA,1737586642
108,tindouf,27.6711,-8.1474,15.25,18,0,4.12,DZ,1737586643
109,whitehorse,60.7161,-135.0538,-3.57,79,20,7.2,CA,1737586644
110,trashi yangtse,27.6116,91.498,7.7,93,71,1.89,BT,1737586645
111,porto murtinho,-21.6989,-57.8825,26.07,80,75,2.41,BR,1737586646
112,tazacorte,28.629,-17.9293,15.54,77,20,1.54,ES,1737586647
113,stanley,54.868,-1.6985,1.01,96,40,2.06,GB,1737586648
114,ilulissat,69.2167,-51.1,-1.99,80,75,3.09,GL,1737586649
115,las trojes,14.0667,-85.9833,20.75,93,43,2.64,HN,1737586650
116,hotan,37.0997,79.9269,-3.91,48,31,0.54,CN,1737586436
117,constantia,44.1833,28.65,0.38,86,69,3.93,RO,1737586652
118,margaret river,-33.95,115.0667,22.52,62,100,4.0,AU,1737586653
119,mahina,-17.5065,-149.489,29.87,70,20,3.6,PF,1737586654
120,villa del totoral,-30.8167,-63.7167,28.68,41,67,3.1,AR,1737586657
121,sao felix do xingu,-6.6447,-51.995,22.49,97,54,1.07,BR,1737586658
122,san agustin,20.5333,-103.4667,24.34,49,1,3.86,MX,1737586659
123,faya-largeau,17.9257,19.1043,21.42,24,0,10.94,TD,1737586660
124,carnarvon,-24.8667,113.6333,26.0,86,100,2.98,AU,1737586661
125,thinadhoo,0.5333,72.9333,26.86,76,100,3.79,MV,1737586662
126,popondetta,-8.7537,148.2534,29.91,66,100,0.27,PG,1737586663
127,bilibino,68.0546,166.4372,-30.6,98,100,0.83,RU,1737586664
128,al kharijah,25.4514,30.5464,16.49,53,0,3.96,EG,1737586665
129,usogorsk,63.4106,48.6872,-13.61,83,100,4.05,RU,1737586666
130,marang,5.2056,103.2059,23.95,88,100,1.97,MY,1737586667
131,griffith,41.5284,-87.4237,-4.78,59,100,7.72,US,1737586554
132,san patricio,28.017,-97.5169,9.51,61,73,4.02,US,1737586669
133,vilyuchinsk,52.9306,158.4028,-13.85,87,17,3.87,RU,1737586670
134,petropavlovsk-kamchatsky,53.0452,158.6483,-14.67,56,0,5.0,RU,1737586671
135,ban phai,16.06,102.731,18.15,56,100,1.15,TH,1737586672
136,altamira,-3.2033,-52.2064,23.08,96,41,0.92,BR,1737586673
137,kupang,-10.1667,123.5833,25.32,100,40,0.0,ID,1737586675
138,vila franca do campo,37.7167,-25.4333,11.23,76,84,1.08,PT,1737586676
139,akureyri,65.6835,-18.0878,-4.04,63,0,8.75,IS,1737586677
140,key west,24.5557,-81.7826,17.0,85,100,8.23,US,1737586478
141,hope mills,34.9704,-78.9453,-0.78,43,0,2.57,US,1737586519
142,bandarbeyla,9.4942,50.8122,23.0,76,20,9.61,SO,1737586680
143,tyuratam,45.6507,63.3156,-13.3,57,50,4.55,KZ,1737586681
144,hadibu,12.65,54.0333,22.24,70,8,6.51,YE,1737586682
145,mirriah,13.7073,9.1501,19.99,18,0,5.52,NE,1737586683
146,morondava,-20.2833,44.2833,25.85,88,99,3.07,MG,1737586684
147,cabo san lucas,22.8909,-109.9124,23.75,44,45,2.24,MX,1737586474
148,avarua,-21.2078,-159.775,29.03,79,40,3.6,CK,1737586686
149,yuzhno-kurilsk,44.0306,145.8556,-2.02,84,79,2.98,RU,1737586687
150,iskateley,67.6803,53.1512,-19.94,96,98,4.21,RU,1737586688
151,fort st. john,56.2499,-120.8529,-0.06,59,100,6.69,CA,1737586632
152,namibe,-15.1961,12.1522,21.9,76,100,2.97,AO,1737586690
153,san rafael,-34.6177,-68.3301,34.33,18,1,8.6,AR,1737586628
154,anadyr,64.75,177.4833,-11.72,85,75,11.0,RU,1737586692
155,portland,45.5234,-122.6762,10.65,54,20,2.24,US,1737586641
156,hermanus,-34.4187,19.2345,22.11,74,100,1.11,ZA,1737586694
157,tezu,27.9167,96.1667,18.28,44,74,1.24,IN,1737586695
158,raduzhny,62.0961,77.475,-24.26,82,100,9.07,RU,1737586696
159,port blair,11.6667,92.75,21.02,94,7,1.03,IN,1737586697
160,lebu,-37.6167,-73.65,16.6,73,22,2.2,CL,1737586698
161,gillette,44.2911,-105.5022,-5.53,87,100,8.75,US,1737586700
162,saint-martin-de-crau,43.6395,4.8127,12.23,82,100,2.57,FR,1737586701
163,soe,-9.8607,124.284,20.73,90,97,0.83,ID,1737586702
164,saldanha,-33.0117,17.9442,18.72,94,77,1.36,ZA,1737586704
165,smithers,54.7804,-127.1743,-1.82,74,100,1.03,CA,1737586705
166,piti village,13.4626,144.6933,29.03,81,20,5.14,GU,1737586706
167,dipayal,29.2608,80.94,11.72,55,3,1.82,NP,1737586707
168,klyuchi,52.2667,79.1667,-18.73,90,100,7.03,RU,1737586708
169,makubetsu,45.3714,141.8211,-2.82,89,99,2.98,JP,1737586709
170,campo alegre,-9.7819,-36.3508,24.15,81,16,4.49,BR,1737586710
171,kasane,-17.8167,25.15,18.03,98,90,1.68,BW,1737586711
172,utrik,11.2278,169.8474,26.43,78,42,8.87,MH,1737586712
173,fale old settlement,-9.3852,-171.2468,27.97,76,12,6.17,TK,1737586713
174,kavaratti,10.5669,72.642,27.49,70,11,4.29,IN,1737586714
175,karratha,-20.7377,116.8463,27.94,79,3,5.21,AU,1737586715
176,tarquinia,42.2482,11.7553,11.0,99,82,6.51,IT,1737586716
177,tiksi,71.6872,128.8694,-36.66,98,97,3.63,RU,1737586717
178,santo antonio do ica,-3.1022,-67.9397,27.47,69,81,1.73,BR,1737586718
179,gazojak,41.1875,61.4036,-2.91,29,1,3.56,TM,1737586719
180,fisterra,42.9049,-9.2629,11.8,70,42,8.37,ES,1737586721
181,tadine,-21.55,167.8833,25.77,72,100,1.9,NC,1737586722
182,west island,-12.1568,96.8225,25.99,73,56,3.09,CC,1737586723
183,praia da vitoria,38.7333,-27.0667,11.14,87,20,2.35,PT,1737586724
184,lata,40.1629,-8.3327,14.72,92,96,1.05,PT,1737586725
185,acapulco de juarez,16.8634,-99.8901,24.74,67,0,3.52,MX,1737586726
186,moissala,8.3404,17.7663,26.25,21,75,2.24,TD,1737586727
187,yeppoon,-23.1333,150.7333,30.76,61,3,2.05,AU,1737586728
188,new norfolk,-42.7826,147.0587,14.95,50,96,1.22,AU,1737586729
189,port augusta,-32.5,137.7667,24.41,53,96,5.1,AU,1737586731
190,kantabanji,20.4833,82.9167,16.6,37,36,0.53,IN,1737586732
191,gulf shores,30.246,-87.7008,3.34,56,6,0.45,US,1737586733
192,wotho,10.1657,166.0102,27.11,74,100,10.51,MH,1737586734
193,east london,-33.0153,27.9116,23.66,88,96,9.16,ZA,1737586735
194,happy valley-goose bay,53.3168,-60.3315,-22.83,54,20,4.12,CA,1737586736
195,kununurra,-15.7667,128.7333,27.99,83,89,1.54,AU,1737586737
196,kilis,36.7161,37.115,3.35,76,100,3.37,TR,1737586738
197,st. john's,47.5649,-52.7093,-8.8,68,75,5.66,CA,1737586739
198,pitiquito,30.7,-112.0833,23.27,4,100,2.87,MX,1737586741
199,hryhoriopol,47.1536,29.2964,4.42,98,100,0.59,MD,1737586742
200,puerto yuca,2.9383,-73.2083,28.29,43,4,1.37,CO,1737586743
201,bikenibeu village,1.3673,173.1241,27.98,78,20,5.14,KI,1737586744
202,casale monferrato,45.1334,8.4571,5.08,98,100,1.18,IT,1737586745
203,bukene,-4.2333,32.8833,17.56,97,98,2.98,TZ,1737586746
204,tolanaro,-25.0319,46.9987,24.04,94,75,7.2,MG,1737586747
205,prado,-17.3411,-39.2208,26.03,89,0,4.48,BR,1737586748
206,bardai,11.65,7.2333,20.75,24,24,4.18,NG,1737586749
207,wynyard,-41.0,145.7167,16.22,84,100,4.02,AU,1737586628
208,port lincoln,-34.7333,135.8667,19.03,61,100,6.07,AU,1737586751
209,manado,1.487,124.8455,24.93,91,93,0.74,ID,1737586752
210,cole harbour,44.6724,-63.4751,-11.14,52,52,5.81,CA,1737586753
211,'ain el melh,34.8415,4.1638,8.37,49,66,1.96,DZ,1737586754
212,kailua-kona,19.6406,-155.9956,26.98,65,0,5.14,US,1737586755
213,mount isa,-20.7333,139.5,30.87,55,75,4.12,AU,1737586756
214,constitucion,-35.3333,-72.4167,15.97,75,4,4.84,CL,1737586757
215,verkhnevilyuysk,63.4453,120.3167,-6.48,92,100,3.3,RU,1737586758
216,new kingman-butler,35.265,-114.0323,15.43,7,1,2.24,US,1737586759
217,nasiriyah,31.0521,46.261,13.18,31,100,1.85,IQ,1737586760
218,naryshkino,52.9678,35.7268,-2.1,37,100,5.77,RU,1737586761
219,hamilton,39.1834,-84.5333,-6.03,46,20,5.36,US,1737586762
220,orcopampa,-15.2661,-72.3417,7.03,95,100,2.64,PE,1737586763
221,ha giang,22.8333,104.9833,15.22,89,90,0.3,VN,1737586765
222,codrington,-38.2667,141.9667,15.93,61,100,3.27,AU,1737586766
223,qusmuryn,52.4503,64.6311,-22.96,86,53,5.51,KZ,1737586768
224,fort mcmurray,56.7268,-111.381,-4.23,80,100,3.6,CA,1737586769
225,usinsk,65.9939,57.5281,-24.71,96,67,5.32,RU,1737586770
226,gambiran satu,-8.3939,114.1464,22.49,100,100,0.45,ID,1737586771
227,zaysan,47.4667,84.8667,-11.0,93,100,0.67,KZ,1737586773
228,gilgit,35.9221,74.3087,-3.56,60,94,1.58,PK,1737586774
229,el porvenir,13.7617,-87.3458,28.09,53,30,3.43,HN,1737586775
230,i-n-salah,27.1935,2.4607,16.09,15,36,0.73,DZ,1737586776
231,bubaque,11.2833,-15.8333,24.31,69,6,7.34,GW,1737586777
232,minas de marcona,-15.2119,-75.1103,18.18,76,78,7.32,PE,1737586778
233,tura,25.5198,90.2201,13.04,93,1,1.22,IN,1737586779
234,guiuan,11.0333,125.7247,27.05,83,100,5.93,PH,1737586780
235,kerikeri,-35.2268,173.9474,26.06,63,8,1.34,NZ,1737586781
236,guangyuan,32.442,105.823,10.15,91,100,0.62,CN,1737586782
237,mathba,22.2855,89.9629,15.37,60,4,2.33,BD,1737586783
238,mohr,54.3528,9.7167,2.08,93,100,3.6,DE,1737586785
239,taltal,-25.4,-70.4833,20.24,71,26,1.98,CL,1737586786
240,challapata,-18.9,-66.7667,13.5,57,99,2.74,BO,1737586787
241,hampton bays,40.869,-72.5176,-7.3,50,0,2.68,US,1737586788
242,ciudad lazaro cardenas,17.9583,-102.2,27.43,56,0,3.73,MX,1737586741
243,mejit,10.2753,170.8646,26.6,77,38,9.15,MH,1737586790
244,parham,17.0968,-61.7705,25.83,100,75,6.69,AG,1737586791
245,les cayes,18.2,-73.75,24.33,76,5,2.31,HT,1737586792
246,pauini,-7.7136,-66.9764,23.32,96,70,1.1,BR,1737586793
247,caldwell,43.6629,-116.6874,4.71,43,0,2.57,US,1737586564
248,benalla,-36.55,145.9833,22.43,45,83,3.11,AU,1737586795
249,sao vicente,-23.9631,-46.3919,26.66,26,94,1.26,BR,1737586796
250,qaqortoq,60.7167,-46.0333,-8.02,95,100,2.45,GL,1737586797
251,'alaqahdari dishu,30.4374,63.313,5.42,60,0,4.16,AF,1737586798
252,banes,20.9625,-75.7186,23.44,82,100,1.91,CU,1737586799
253,dolores,-36.3132,-57.6792,23.51,52,0,6.85,AR,1737586800
254,hillvue,-31.1244,150.915,27.95,47,20,7.72,AU,1737586801
255,dongcun,36.7767,121.1597,-0.63,61,0,1.83,CN,1737586802
256,yellowknife,62.456,-114.3525,-10.88,99,75,7.2,CA,1737586803
257,divnogorsk,55.9594,92.3619,-8.73,71,93,7.25,RU,1737586804
258,vilyuysk,63.7553,121.6247,-5.54,95,100,3.24,RU,1737586805
259,muscatine,41.4667,-91.1335,-2.31,59,100,6.17,US,1737586806
260,mana,5.6592,-53.7767,24.84,89,80,4.38,GF,1737586807
261,saipan,15.1355,145.701,29.39,76,75,7.2,MP,1737586808
262,knysna,-34.0363,23.0471,23.36,75,56,0.87,ZA,1737586809
263,nikolayevsk-on-amure,53.1406,140.73,-21.25,98,70,1.71,RU,1737586811
264,warmbaths,-24.8833,28.2833,18.96,67,0,3.48,ZA,1737586812
265,nuku'alofa,-21.1333,-175.2,30.19,84,75,2.57,TO,1737586813
266,saint clair,38.55,-89.9168,0.19,50,92,0.89,US,1737586814
267,sinop,41.7711,34.8709,5.39,80,100,3.99,TR,1737586815
268,ishigaki,24.3448,124.1572,20.07,83,75,3.6,JP,1737586816
269,olonkinbyen,70.9221,-8.7187,-1.95,89,95,8.22,SJ,1737586817
270,melekeok village,7.4957,134.6367,27.31,89,100,0.0,PW,1737586818
271,chak azam sahu,30.75,73.0333,11.28,44,10,2.65,PK,1737586819
272,kirakira,-10.4544,161.9205,27.94,83,100,2.82,SB,1737586820
273,aksu,41.1231,80.2644,-9.29,86,4,2.15,CN,1737586801
274,lospalos,-8.5186,127.0025,24.0,85,100,0.62,TL,1737586822
275,essaouira,31.5125,-9.77,16.72,82,20,4.12,MA,1737586823
276,cuito,-12.3833,16.9333,14.03,85,76,2.29,AO,1737586824
277,elliot,-31.3333,27.85,16.77,63,73,2.72,ZA,1737586825
278,prince rupert,54.3161,-130.3201,6.83,86,100,15.95,CA,1737586826
279,crane,31.3974,-102.3501,11.75,17,61,2.02,US,1737586827
280,torbat-e jam,35.244,60.6225,0.89,80,7,1.37,IR,1737586828
281,belomorsk,64.5232,34.7668,-8.12,95,100,1.68,RU,1737586678
282,horta,38.5333,-28.6333,12.8,82,20,3.09,PT,1737586830
283,wesley,15.5667,-61.3167,23.74,94,75,1.54,DM,1737586831
284,masterton,-40.9597,175.6575,25.03,40,21,1.76,NZ,1737586832
285,fortuna,40.5982,-124.1573,13.88,63,0,4.63,US,1737586834
286,lewistown,40.5992,-77.5714,-9.33,69,0,0.0,US,1737586835
287,nantucket,41.2835,-70.0995,-4.92,58,0,7.2,US,1737586589
288,christchurch,-43.5333,172.6333,21.62,65,18,7.2,NZ,1737586806
289,la sarre,48.8002,-79.1996,-12.03,90,100,5.78,CA,1737586838
290,belle fourche,44.6714,-103.8522,-4.27,80,100,8.76,US,1737586839
291,phillip island,-38.4835,145.231,16.29,76,100,5.17,AU,1737586841
292,kumylzhenskaya,49.8809,42.5898,-4.73,40,100,7.77,RU,1737586842
293,askale,39.9208,40.695,-7.52,79,100,2.35,TR,1737586843
294,grand falls-windsor,48.9332,-55.6649,-12.5,67,83,3.13,CA,1737586844
295,san antonio de pale,-1.4014,5.6325,26.55,83,80,4.91,GQ,1737586845
296,gazli,40.1333,63.45,-1.75,44,7,3.15,UZ,1737586846
297,enewetak,11.3474,162.3373,27.1,78,100,10.23,MH,1737586847
298,mata-utu,-13.2816,-176.1745,28.3,78,68,6.88,WF,1737586848
299,tofol,5.3248,163.0078,27.15,81,98,7.9,FM,1737586849
300,saurimo,-9.6608,20.3916,17.75,89,91,1.89,AO,1737586850
301,bamboo flat,11.7,92.7167,21.05,94,7,1.03,IN,1737586851
302,aasiaat,68.7098,-52.8699,-6.54,85,100,6.08,GL,1737586617
303,naracoorte,-36.9579,140.7383,15.47,53,100,3.65,AU,1737586853
304,pallasovka,50.05,46.8833,-10.15,56,63,5.88,RU,1737586854
305,tomatlan,19.9333,-105.25,29.94,27,0,2.78,MX,1737586856
306,tarko-sale,64.9225,77.785,-29.45,91,95,10.45,RU,1737586857
307,stillwater,36.1156,-97.0584,4.2,50,0,3.09,US,1737586859
308,kalmunai,7.4167,81.8167,24.81,81,34,4.68,LK,1737586860
309,thunder bay,48.4001,-89.3168,-12.01,61,75,6.69,CA,1737586661
310,bambanglipuro,-7.95,110.2833,25.25,88,100,1.91,ID,1737586862
311,sungailiat,-1.85,106.1333,24.17,91,100,3.44,ID,1737586863
312,nago,26.5881,127.9761,18.58,60,89,3.81,JP,1737586864
313,lubang,13.8584,120.124,26.3,76,85,9.54,PH,1737586865
314,xining,36.6167,101.7667,-4.49,57,26,1.3,CN,1737586812
315,talnakh,69.4865,88.3972,-39.37,95,18,1.87,RU,1737586867
316,kutum,14.2,24.6667,18.09,22,0,5.17,SD,1737586868
317,nelson bay,-32.7167,152.15,23.95,73,100,4.47,AU,1737586869
318,kruisfontein,-34.0033,24.7314,20.61,92,41,1.82,ZA,1737586870
319,kunyang,27.6658,120.5658,12.56,86,100,1.59,CN,1737586806
320,talara,-4.5772,-81.2719,25.42,65,0,5.66,PE,1737586872
321,timbuktu,16.7735,-3.0074,23.99,10,0,4.31,ML,1737586873
322,gbarnga,6.9956,-9.4722,21.75,97,14,0.87,LR,1737586874
323,puerto aysen,-45.4,-72.7,12.13,99,100,1.48,CL,1737586875
324,shiguai,40.7058,110.2856,-5.78,54,26,1.06,CN,1737586818
325,flin flon,54.7682,-101.865,-16.09,72,75,0.0,CA,1737586877
326,fort stockton,30.894,-102.8793,13.2,10,0,3.6,US,1737586878
327,hilo,19.7297,-155.09,27.28,68,40,4.12,US,1737586739
328,mersa matruh,31.3525,27.2453,13.11,82,40,3.09,EG,1737586881
329,canmore,51.0834,-115.3521,0.06,40,11,4.12,CA,1737586882
330,ilhabela,-23.7781,-45.3581,26.48,89,100,0.55,BR,1737586883
331,sampit,-2.5333,112.95,23.11,98,100,0.99,ID,1737586884
332,urengoy,65.9667,78.3667,-30.55,93,88,8.63,RU,1737586885
333,saint-francois,46.4154,3.9054,12.03,73,0,3.6,FR,1737586886
334,kamaishi,39.2667,141.8833,3.17,80,61,1.56,JP,1737586887
335,weiser,44.251,-116.9693,0.91,43,2,0.73,US,1737586888
336,sola,-13.8833,167.55,28.58,76,68,4.58,VU,1737586889
337,hammerfest,70.6634,23.6821,-3.75,80,75,4.63,NO,1737586890
338,maloye ganyushkino,46.6,49.2667,-7.28,70,11,8.26,KZ,1737586891
339,lompoc,34.6391,-120.4579,23.07,21,40,2.06,US,1737586690
340,shalqar,47.8333,59.6,-25.51,90,5,1.06,KZ,1737586893
341,al bardiyah,31.7561,25.0865,13.79,70,1,4.46,LY,1737586894
342,adelia maria,-33.6315,-64.021,34.03,16,0,4.43,AR,1737586895
343,ketchikan,55.3422,-131.6461,7.21,96,100,0.45,US,1737586896
344,vorkuta,67.5,64.0,-29.86,99,100,3.91,RU,1737586897
345,ulety,51.3572,112.4849,-22.64,99,15,0.37,RU,1737586898
346,kolonia,50.9333,6.95,4.58,92,75,5.14,DE,1737586899
347,colotlan,22.1,-103.2667,23.25,18,0,4.9,MX,1737586900
348,pangai,-19.8,-174.35,30.06,79,40,2.57,TO,1737586901
349,rio san juan,19.6439,-70.0763,24.27,91,2,4.02,DO,1737586902
350,embi,48.8264,58.1442,-30.94,100,26,1.47,KZ,1737586903
351,broken hill,-31.95,141.4333,24.38,29,83,3.96,AU,1737586746
352,tilcara,-23.5776,-65.3509,10.37,99,99,2.33,AR,1737586906
353,igarka,67.4667,86.5833,-31.67,88,100,7.72,RU,1737586907
354,peterhead,57.5058,-1.7981,3.84,80,14,0.79,GB,1737586908
355,lazaro cardenas,17.9583,-102.2,27.43,56,0,3.73,MX,1737586909
356,al bawiti,28.3492,28.8659,13.14,79,0,3.23,EG,1737586912
357,lihue,21.9789,-159.3672,23.19,68,0,7.2,US,1737586640
358,champerico,14.3,-91.9167,27.87,69,0,4.51,GT,1737586915
359,lianhe,47.1333,129.2667,-20.09,100,48,0.82,CN,1737586916
360,ormond-by-the-sea,29.3491,-81.0665,7.23,91,100,8.23,US,1737586917
361,north battleford,52.7834,-108.2847,-7.95,79,100,7.2,CA,1737586918
362,dunedin,-45.8742,170.5036,15.45,95,62,1.79,NZ,1737586919
363,mao,39.8885,4.2658,14.31,88,0,3.6,ES,1737586921
364,porto novo,6.4965,2.6036,27.9,88,100,2.58,BJ,1737586922
365,aswan,24.0934,32.907,20.61,24,0,3.6,EG,1737586923
366,sinabang,2.4803,96.3801,25.53,83,100,0.94,ID,1737586924
367,tongshan,34.1805,117.1571,2.5,92,28,2.67,CN,1737586833
368,cuatro cienegas de carranza,26.9833,-102.0833,15.27,17,100,1.71,MX,1737586926
369,tyrnava,64.7647,25.6523,-10.01,96,99,1.45,FI,1737586927
370,saint-philippe,-21.3585,55.7679,25.82,82,26,2.35,RE,1737586928
371,puerto deseado,-47.7503,-65.8938,14.7,76,100,12.09,AR,1737586929
372,weno,7.4515,151.8468,28.23,80,70,8.95,FM,1737586930
373,arezzo,43.4724,11.869,8.14,92,100,2.2,IT,1737586931
374,nemuro,43.3236,145.575,-0.77,79,53,2.73,JP,1737586932
375,qamdo,31.1667,97.2333,-2.92,48,66,1.98,CN,1737586837
376,sorochinsk,52.4338,53.1583,-28.34,99,9,1.36,RU,1737586934
377,arrifes,37.7667,-25.7,10.14,82,20,2.57,PT,1737586935
378,sao joao da barra,-21.6403,-41.0511,27.05,93,8,4.13,BR,1737586936
379,wamba,8.9333,8.6,25.75,17,15,2.77,NG,1737586937
380,villa gesell,-37.2639,-56.973,18.76,77,0,5.38,AR,1737586938
381,nuuk,64.1835,-51.7216,-6.66,73,75,1.54,GL,1737586939
382,jaicos,-7.3592,-41.1378,25.01,78,87,2.15,BR,1737586940
383,sechura,-5.5569,-80.8222,25.47,60,34,8.59,PE,1737586942
384,klaksvik,62.2266,-6.589,5.03,76,98,7.68,FO,1737586943
385,almeirim,-1.5233,-52.5817,23.05,97,88,1.11,BR,1737586944
386,catumbela,-12.4314,13.5472,24.3,84,56,1.39,AO,1737586946
387,mataram,-8.5833,116.1167,25.79,85,99,1.15,ID,1737586947
388,viedma,-40.8135,-62.9967,20.77,51,6,8.07,AR,1737586948
389,springs,-26.25,28.4,19.26,85,7,2.39,ZA,1737586949
390,kyren,51.6828,102.1408,-9.66,72,2,1.59,RU,1737586952
391,novyy turtkul',41.55,61.0167,-4.67,38,0,2.9,UZ,1737586953
392,qazvin,36.2797,50.0049,0.79,55,0,2.06,IR,1737586954
393,yulinshi,38.2906,109.7494,-1.51,37,56,1.95,CN,1737586802
394,kabinda,-6.1333,24.4833,19.99,89,100,0.98,CD,1737586956
395,neyshabur,36.2133,58.7958,1.15,45,0,1.09,IR,1737586958
396,tralee,52.2704,-9.7026,5.32,93,64,2.5,IE,1737586959
397,katsuura,35.1333,140.3,12.63,56,100,4.06,JP,1737586960
398,ribas do rio pardo,-20.4431,-53.7592,28.34,53,78,3.42,BR,1737586961
399,clovis,36.8252,-119.7029,16.76,44,0,0.0,US,1737586962
400,sao jose da coroa grande,-8.8978,-35.1478,26.38,74,15,4.43,BR,1737586963
401,makokou,0.5738,12.8642,22.02,93,92,0.79,GA,1737586964
402,akjoujt,19.6969,-14.4164,20.8,20,93,4.06,MR,1737586965
403,el granada,37.5027,-122.4694,18.88,43,0,5.14,US,1737586966
404,brisas de zicatela,15.8369,-97.0419,26.21,72,7,2.5,MX,1737586967
405,afif,23.9065,42.9172,12.15,34,40,5.84,SA,1737586968
406,mount gambier,-37.8333,140.7667,15.94,60,100,2.85,AU,1737586969
407,miedzyrzec podlaski,51.9864,22.7825,1.77,94,88,2.61,PL,1737586971
408,itoman,26.1247,127.6694,20.05,68,75,4.63,JP,1737586972
409,waingapu,-9.6567,120.2641,25.61,89,100,0.8,ID,1737586973
410,jejuri,18.2833,74.1667,17.6,34,25,0.49,IN,1737586974
411,lisala,2.15,21.5167,23.3,72,61,1.24,CD,1737586975
412,akrehamn,59.2667,5.1833,2.14,75,75,2.57,NO,1737586976
413,goshaingaon,26.4379,89.9788,13.55,87,0,0.52,IN,1737586977
414,hithadhoo,-0.6,73.0833,27.24,75,99,5.54,MV,1737586979
415,tocopilla,-22.092,-70.1979,21.52,70,86,1.75,CL,1737586980
416,pacific grove,36.6177,-121.9166,21.61,49,0,2.06,US,1737586981
417,spring creek,40.7266,-115.5859,4.28,24,14,2.36,US,1737586982
418,port macquarie,-31.4333,152.9167,24.48,76,72,0.89,AU,1737586983
419,qui nhon,13.7667,109.2333,16.93,89,100,2.53,VN,1737586984
420,keflavik,64.0049,-22.5624,2.24,69,20,15.43,IS,1737586985
421,kot samaba,28.5522,70.4684,13.27,51,2,2.41,PK,1737586986
422,dazhou,31.2159,107.5009,10.34,90,100,0.71,CN,1737586987
423,el bauga,18.262,33.9081,20.67,40,0,4.85,SD,1737586988
424,palikir - national government center,6.9248,158.1611,27.86,76,97,9.54,FM,1737586989
425,meulaboh,4.1363,96.1285,24.26,91,75,1.64,ID,1737586991
426,oodweyne,9.4092,45.064,17.79,39,3,3.24,SO,1737586992
427,mili,6.0815,171.735,26.89,82,83,10.32,MH,1737586993
428,gejiu,23.306,103.1635,4.84,96,13,1.36,CN,1737586994
429,bellevue,47.6104,-122.2007,7.28,65,0,5.14,US,1737586995
430,podu turcului,46.2,27.3833,2.65,91,61,2.14,RO,1737586996
431,eirunepe,-6.6603,-69.8736,23.67,93,100,0.92,BR,1737586997
432,goz beida,13.95,20.55,23.23,17,2,5.5,TD,1737586999
433,fuglafjordur,62.244,-6.814,4.03,81,90,6.51,FO,1737587000
434,acarau,-2.8856,-40.12,26.63,78,0,5.93,BR,1737587002
435,middlesboro,36.6084,-83.7166,-3.0,43,0,2.06,US,1737587003
436,taos,36.4072,-105.5731,0.78,22,100,8.75,US,1737587004
437,hasaki,35.7333,140.8333,11.19,48,81,3.63,JP,1737586740
438,ruteng,-8.6136,120.4721,18.68,96,95,0.34,ID,1737587006
439,yoko,5.5333,12.3167,22.67,32,57,1.34,CM,1737587007
440,solleftea,63.1667,17.2667,-9.08,99,98,0.23,SE,1737587008
441,yuncheng,35.0231,110.9928,2.85,49,98,2.98,CN,1737587009
442,hajiganj,23.2511,90.8592,13.48,77,47,1.86,BD,1737587010
443,tessaoua,13.7574,7.9874,19.45,19,0,5.27,NE,1737587011
444,launceston,-41.45,147.1667,15.8,63,100,2.57,AU,1737587012
445,srivardhan,18.0333,73.0167,22.17,69,31,3.37,IN,1737587013
446,al bayda',32.7627,21.7551,9.1,83,4,4.63,LY,1737587014
447,kefamenanu,-9.4467,124.4781,22.51,92,100,0.48,ID,1737587015
448,mugia,43.1041,-9.2179,10.51,69,64,7.8,ES,1737587016
449,mollendo,-17.0231,-72.0147,20.96,83,70,2.93,PE,1737587017
450,colonia,50.9333,6.95,4.58,92,75,3.6,DE,1737587018
451,shubarshi,48.5872,57.1869,-28.18,99,9,1.78,KZ,1737587020
452,puerto baquerizo moreno,-0.9,-89.6,27.55,69,75,5.66,EC,1737587022
453,abepura,-2.6333,140.5833,26.45,89,20,1.54,ID,1737587023
454,gizo,-8.103,156.8419,29.6,72,99,4.89,SB,1737587024
455,gadzhiyevo,69.2551,33.3362,-13.58,96,99,3.49,RU,1737587025
456,benjamin constant,-4.3831,-70.0311,27.07,83,20,1.03,BR,1737587026
457,la romana,18.4273,-68.9728,25.2,78,20,2.57,DO,1737587027
458,kalat,29.0225,66.5916,-1.35,93,10,2.37,PK,1737587028
459,yemetsk,63.4721,41.7941,-10.11,94,100,4.15,RU,1737587029
460,manokwari,-0.8667,134.0833,27.07,71,100,0.54,ID,1737587030
461,khovd,48.0056,91.6419,-11.49,75,21,1.52,MN,1737587031
462,lincheng,19.9078,109.6858,18.89,94,98,5.03,CN,1737587032
463,celestun,20.8667,-90.4,21.57,62,69,6.45,MX,1737587033
464,beloyarskiy,63.7119,66.6722,-37.51,100,18,1.74,RU,1737587034
465,timimoun,29.2639,0.231,17.48,18,100,2.75,DZ,1737587035
466,castillos,-34.1667,-53.8333,22.09,83,22,2.41,UY,1737587036
467,las palmas,28.4204,-14.0131,15.44,77,20,1.54,ES,1737587037
468,amga,60.8953,131.9608,-13.53,96,100,2.17,RU,1737587038
469,cadale,2.7603,46.3222,24.48,82,69,7.87,SO,1737587040
470,hanceville,34.0607,-86.7675,0.95,28,0,1.6,US,1737587041
471,aktau,43.65,51.2,-4.68,50,15,10.47,KZ,1737587042
472,khanpur mahar,27.8436,69.4137,15.4,25,0,5.27,PK,1737587043
473,parczew,51.6402,22.9006,1.55,98,97,2.6,PL,1737586744
474,oranjemund,-28.55,16.4333,17.3,93,9,1.09,NA,1737587045
475,salinopolis,-0.6136,-47.3561,25.86,87,75,4.03,BR,1737587046
476,city of balikpapan,-1.242,116.8942,23.97,100,40,4.63,ID,1737587047
477,argo,37.6333,22.7333,8.84,81,82,1.88,GR,1737587048
478,chabahar,25.2919,60.643,18.38,32,0,7.65,IR,1737587050
479,sona,45.4388,10.8255,6.03,99,100,1.03,IT,1737587051
480,dwarka,22.2394,68.9678,19.83,70,0,5.76,IN,1737587052
481,freetown,8.484,-13.2299,25.84,83,40,5.14,SL,1737586814
482,jamaame,0.0697,42.745,23.98,90,62,4.51,SO,1737587054
483,suva,-18.1416,178.4415,31.71,70,40,3.6,FJ,1737587055
484,cabugao,17.7931,120.4578,23.72,79,4,1.48,PH,1737587056
485,lexington,37.9887,-84.4777,-5.57,45,0,2.06,US,1737587055
486,dobrush,52.4089,31.3237,1.09,100,100,4.84,BY,1737587058
487,morehead city,34.7229,-76.726,-2.77,70,100,5.36,US,1737587059
488,trail,49.0998,-117.7022,2.6,77,24,0.3,CA,1737586919
489,weiden,49.6775,12.1567,0.01,85,75,2.06,DE,1737587061
490,ocean shores,46.9737,-124.1563,9.69,65,0,1.79,US,1737587063
491,ribeira brava,32.65,-17.0667,17.35,84,71,3.22,PT,1737587064
492,wanlaweyn,2.6185,44.8938,24.3,69,70,5.43,SO,1737587065
493,iquique,-20.2208,-70.1431,21.06,80,94,1.7,CL,1737587066
494,lengshuitan,26.4111,111.5956,16.04,54,94,1.35,CN,1737587067
495,glace bay,46.1969,-59.957,-10.02,67,40,4.92,CA,1737587068
496,lieksa,63.3167,30.0167,-6.54,96,100,1.15,FI,1737587069
497,lorengau,-2.0226,147.2712,26.73,83,100,2.01,PG,1737587070
498,tambacounda,13.7539,-13.7586,27.03,39,0,2.06,SN,1737587071
499,saint-leu,-21.15,55.2833,25.48,90,12,2.42,RE,1737587072
500,porbandar,21.6422,69.6093,17.77,77,0,5.0,IN,1737587073
501,haiku-pauwela,20.9219,-156.3051,25.67,67,20,9.77,US,1737587074
502,san blas,21.5167,-105.2667,21.97,59,0,1.83,MX,1737587075
503,evanston,42.0411,-87.6901,-4.46,75,100,4.12,US,1737587076
504,outjo,-20.1167,16.15,19.37,86,100,4.14,NA,1737587077
505,patterson,37.4716,-121.1297,16.73,44,0,3.56,US,1737587078
506,turpan,42.9333,89.1667,-2.49,46,84,1.54,CN,1737586845
507,lodja,-3.4833,23.4333,21.0,97,99,0.53,CD,1737587080
508,coahuayana de hidalgo,18.7,-103.6583,29.24,37,0,2.21,MX,1737587081
509,diego de almagro,-26.3667,-70.05,24.78,18,0,3.89,CL,1737587082
510,dhulikhel,27.6189,85.5529,6.75,49,0,1.21,NP,1737587083
511,chelak,39.9203,66.8611,-1.58,64,95,3.38,UZ,1737587084
512,prabumulih,-3.45,104.25,23.0,96,98,1.15,ID,1737587085
513,ankazoabo,-22.2833,44.5167,23.0,80,28,2.11,MG,1737587086
514,revel,43.4667,2.0,12.08,83,68,2.05,FR,1737587087
515,marathon,44.9,-89.7668,-6.86,81,100,4.12,US,1737587089
516,arraial do cabo,-22.9661,-42.0278,26.92,83,40,1.54,BR,1737587090
517,kyabe,9.4515,18.9449,28.1,18,88,2.54,TD,1737587091
518,rodna,47.4167,24.8167,0.81,98,100,1.13,RO,1737587092
519,devonport,-41.1667,146.35,13.07,95,100,5.43,AU,1737587093
520,vuokatti,64.146,28.2697,-9.55,98,100,0.04,FI,1737587094
521,maumere,-8.6199,122.2111,26.24,83,100,0.25,ID,1737587095
522,afaahiti,-17.75,-149.2833,26.49,79,46,7.21,PF,1737587096
523,jawf al maqbabah,13.8378,45.8349,16.7,67,4,1.55,YE,1737587097
524,brookings,44.3114,-96.7984,-6.01,76,100,7.72,US,1737587098
525,sorong,-0.8833,131.25,26.81,79,100,1.45,ID,1737587099
526,fort bragg,35.139,-79.006,-2.09,43,0,1.54,US,1737587100
527,teni,10.0,77.4833,21.0,90,100,1.06,IN,1737587101
528,urangan,-25.3,152.9,27.46,84,29,6.9,AU,1737587102
529,magadan,59.5667,150.8,-25.0,77,0,1.98,RU,1737587103
530,ventnor,50.5948,-1.2037,2.99,67,91,5.77,GB,1737587104
531,ksar chellala,35.2122,2.3189,9.92,50,99,3.98,DZ,1737587105
532,webb city,37.1465,-94.463,3.04,44,0,5.14,US,1737587106
533,necochea,-38.5473,-58.7368,17.0,78,2,2.98,AR,1737587108
534,damwald,53.2905,5.9979,3.32,97,100,2.06,NL,1737587110
535,flekkefjord,58.2971,6.6607,0.38,97,100,1.99,NO,1737587111
536,antalaha,-14.9003,50.2788,23.24,90,57,2.03,MG,1737587112
537,annaba,36.9,7.7667,15.98,55,0,4.63,DZ,1737587113
538,zouerate,22.7187,-12.4521,17.01,31,40,4.2,MR,1737587114
539,todtnau,47.8294,7.9438,3.52,94,100,2.61,DE,1737587115
540,ust'-kulom,61.6864,53.6902,-21.19,99,81,2.1,RU,1737587116
541,tsiombe,-25.3,45.4833,24.12,87,57,2.76,MG,1737587117
542,namdrik,5.5994,168.1028,27.17,83,50,9.51,MH,1737587118
543,bom jesus,-9.0744,-44.3586,24.9,77,36,0.61,BR,1737587120
544,muli,2.9167,73.5667,26.73,74,100,1.08,MV,1737587121
545,nainpur,22.4333,80.1167,15.48,43,25,0.95,IN,1737587122
546,feijo,-8.1642,-70.3536,22.77,96,99,0.47,BR,1737587123
547,okhotsk,59.3833,143.3,-23.07,80,0,4.95,RU,1737587124
548,montbard,47.5833,4.5,9.48,88,100,9.43,FR,1737587125
549,puerto santa,-8.9906,-78.6456,21.46,80,17,5.04,PE,1737587126
550,tazovsky,67.4667,78.7,-31.01,95,42,6.56,RU,1737587127
551,notodden,59.5594,9.2585,-5.43,96,100,2.17,NO,1737587128
552,talamba,30.5271,72.2401,12.28,47,6,3.07,PK,1737587129
553,santa elena de uairen,4.6167,-61.1333,22.35,61,100,1.1,VE,1737587131
554,midvagur,62.0511,-7.1939,2.46,87,100,3.6,FO,1737587132
555,erenhot,43.6475,111.9767,-7.29,61,0,2.29,CN,1737587133
556,lodwar,3.1191,35.5973,27.35,40,16,2.46,KE,1737587134
557,bay roberts,47.5999,-53.2648,-8.86,70,100,1.79,CA,1737587135
558,rabo de peixe,37.8,-25.5833,10.73,82,20,2.57,PT,1737587136
559,morant bay,17.8815,-76.4093,25.27,82,15,5.06,JM,1737587137
560,peniche,39.3558,-9.3811,15.11,96,96,4.8,PT,1737587138
561,vila velha,-20.3297,-40.2925,27.19,89,20,4.63,BR,1737587139
562,guerrero negro,27.9769,-114.0611,19.34,22,100,3.79,MX,1737587140
563,reynosa,26.0833,-98.2833,13.84,59,20,4.12,MX,1737587027
564,murghob,38.1702,73.9667,-28.94,95,6,3.26,TJ,1737587142
565,mukalla,14.5425,49.1242,20.86,72,0,2.4,YE,1737587143
566,mil'kovo,55.6078,37.7956,-2.03,50,100,6.41,RU,1737587144
567,plainview,40.7765,-73.4673,-7.49,49,0,0.0,US,1737587145
568,sarmiento,-45.5882,-69.07,23.14,31,100,5.97,AR,1737587146
569,canutama,-6.5339,-64.3831,23.25,97,80,1.8,BR,1737587147
570,okha,53.5739,142.9478,-19.53,95,10,4.28,RU,1737587148
571,al jawf,29.5,38.75,8.99,35,49,1.58,SA,1737587149
572,andirin,37.5776,36.3549,0.56,93,100,3.09,TR,1737587150
573,burang,30.25,81.1667,-11.81,95,99,5.25,CN,1737587153
574,wake village,33.4268,-94.1063,8.06,36,0,3.09,US,1737587154
575,daru,-9.0763,143.2092,27.93,84,100,2.93,PG,1737587155
576,hailar,49.2,119.7,-31.37,100,90,1.41,CN,1737586864
577,kisangani,0.5167,25.2,21.48,98,100,1.11,CD,1737587157
578,rujewa,-8.7,34.3833,18.49,95,98,0.68,TZ,1737587158
579,rundu,-17.9333,19.7667,19.26,96,100,2.2,NA,1737587159
580,maceio,-9.6658,-35.7353,26.69,83,20,4.12,BR,1737587160
581,achinsk,56.2694,90.4993,-12.56,71,79,10.67,RU,1737587161
582,lerwick,60.1545,-1.1494,5.25,81,82,1.29,GB,1737587162
583,camden,39.7835,-74.9663,-7.94,57,75,0.91,US,1737587163
584,massawa,15.6097,39.45,25.74,73,23,0.75,ER,1737587164
585,el calafate,-50.3408,-72.2768,16.31,61,98,4.36,AR,1737587165
586,island harbour,50.724,-1.2758,3.29,68,94,4.28,GB,1737587166
587,gaigeturi,33.4644,126.3183,5.03,81,0,3.09,KR,1737587167
588,queenstown,-31.8976,26.8753,17.05,87,27,0.11,ZA,1737587168
589,tsarevo,42.1667,27.85,5.8,83,17,1.07,BG,1737587169
590,souillac,-20.5167,57.5167,23.21,100,75,3.6,MU,1737587170
591,betio village,1.358,172.9211,29.02,77,20,8.43,KI,1737587171
592,port hedland,-20.3167,118.5667,29.03,74,2,5.66,AU,1737587172
